{
  "cities": [
    {
      "name": "Poprad",
      "coordinates": [
        20.2274,
        49.1887
      ]
    },
    {
      "name": "Humenné",
      "coordinates": [
        21.8694,
        49.0437
      ]
    },
    {
      "name": "Piešťany",
      "coordinates": [
        17.7723,
        48.6002
      ]
    },
    {
      "name": "Kysucké Nové Mesto",
      "coordinates": [
        18.7771,
        49.3055
      ]
    },
    {
      "name": "Prešov",
      "coordinates": [
        21.2110,
        49.15
      ]
    },
    {
      "name": "Trnava",
      "coordinates": [
        17.5034,
        48.3746
      ]
    }
  ]
}
